[{"Key":"226081","City":"Seoul","AdministrativeArea":"Seoul","Country":"South Korea","Latitude":37.537,"Longitude":126.97},{"Key":"24741","City":"Brisbane","AdministrativeArea":"Queensland","Country":"Australia","Latitude":-27.469,"Longitude":153.023},{"Key":"22889","City":"Sydney","AdministrativeArea":"New South Wales","Country":"Australia","Latitude":-33.87,"Longitude":151.209},{"Key":"328328","City":"London","AdministrativeArea":"London","Country":"United Kingdom","Latitude":51.514,"Longitude":-0.107},{"Key":"13944","City":"Spring Hill","AdministrativeArea":"Queensland","Country":"Australia","Latitude":-27.46,"Longitude":153.021}]